[
    {
      "address": {
        "addressLocality": "Los Angeles",
        "addressRegion": "CA",
        "streetAddress": "948 Broxton Ave.",
        "postalCode": "90024"
      },
      "geo": {
        "@type": "GeoCoordinates",
        "latitude": "34.063102",
        "longitude": "-118.44695"
      },
      "name": "Bruin Theatre",
      "description": "Movie Theatres",
      "telephone": "310-208-8998",
      "url": "https://thewestwoodvillage.com/business-details/?ID=290",
      "type": "arts_and_entertainment",
      "status": "Temporarily closed",
      "open": false
    },
    {
      "address": {
        "addressLocality": "Los Angeles",
        "addressRegion": "CA",
        "streetAddress": "10886 Le Conte Ave.",
        "postalCode": "90024"
      },
      "geo": {
        "@type": "GeoCoordinates",
        "latitude": "34.063523",
        "longitude": "-118.444394"
      },
      "name": "Geffen Playhouse",
      "description": "Performing Arts",
      "telephone": "310-208-6500",
      "url": "https://thewestwoodvillage.com/business-details/?ID=353",
      "type": "arts_and_entertainment",
      "status": "Temporarily closed",
      "open": false
    },
    {
      "address": {
        "addressLocality": "Los Angeles",
        "addressRegion": "CA",
        "streetAddress": "10899 Wilshire Blvd.",
        "postalCode": "90024"
      },
      "geo": {
        "@type": "GeoCoordinates",
        "latitude": "34.059082",
        "longitude": "-118.443825"
      },
      "name": "Hammer Museum",
      "description": "Museums",
      "telephone": "310-443-7000",
      "url": "https://thewestwoodvillage.com/business-details/?ID=365",
      "type": "arts_and_entertainment",
      "status": "Temporarily closed",
      "open": false
    },
    {
      "address": {
        "addressLocality": "Los Angeles",
        "addressRegion": "CA",
        "streetAddress": "10840 Wilshire Blvd.",
        "postalCode": "90024"
      },
      "geo": {
        "@type": "GeoCoordinates",
        "latitude": "34.059403",
        "longitude": "-118.441171"
      },
      "name": "iPic Theaters",
      "description": "Movie Theaters",
      "telephone": "310-307-7003",
      "url": "https://thewestwoodvillage.com/business-details/?ID=376",
      "type": "arts_and_entertainment",
      "status": "Temporarily closed",
      "open": false
    },
    {
      "address": {
        "addressLocality": "Los Angeles",
        "addressRegion": "CA",
        "streetAddress": "961 Broxton Ave.",
        "postalCode": "90024"
      },
      "geo": {
        "@type": "GeoCoordinates",
        "latitude": "34.062569",
        "longitude": "-118.447087"
      },
      "name": "Regency Fox Village Theatre",
      "description": "Movie Theatres",
      "telephone": "310-208-6293",
      "url": "https://thewestwoodvillage.com/business-details/?ID=347",
      "type": "arts_and_entertainment",
      "status": "Temporarily closed",
      "open": false
    },
    {
      "address": {
        "addressLocality": "Los Angeles",
        "addressRegion": "CA",
        "streetAddress": "1045 Broxton Ave.",
        "postalCode": "90024"
      },
      "geo": {
        "@type": "GeoCoordinates",
        "latitude": "34.061648",
        "longitude": "-118.446505"
      },
      "name": "The Landmark Westwood ",
      "description": "Movie Theatres",
      "telephone": "310-208-3250",
      "url": "https://thewestwoodvillage.com/business-details/?ID=395",
      "type": "arts_and_entertainment",
      "status": "Temporarily Closed",
      "open": false
    }
  ]