[
{"address": {"addressLocality": "Los Angeles", "addressRegion": "CA", "streetAddress": "10889 Lindbrook Drive", "postalCode": "90024"}, "geo": {"@type": "GeoCoordinates", "latitude": "34.05988", "longitude": "-118.444365"}, "name": "800 Degrees Woodfire Kitchen", "description": "Italian, American, Bars & Nightlife", "telephone": "310-443-1911", "url": "https://thewestwoodvillage.com/business-details/?ID=538", "type": "dining", "status": "offering takeout through DoorDash, PostMates, and UberEATS", "open": true},
{"address": {"addressLocality": "Los Angeles", "addressRegion": "CA", "streetAddress": "1051 Broxton Ave.", "postalCode": "90024"}, "geo": {"@type": "GeoCoordinates", "latitude": "34.061542", "longitude": "-118.446413"}, "name": "Ami Japanese Restaurant & Sushi Bar", "description": "Asian, Happy Hour", "telephone": "310-209-1994", "url": "https://thewestwoodvillage.com/business-details/?ID=268", "type": "dining", "status": "offering takeout through seamless, GrubHub, PostMates and Doordash", "open": true},
{"address": {"addressLocality": "Los Angeles", "addressRegion": "CA", "streetAddress": "10899 Wilshire Blvd.", "postalCode": "90024"}, "geo": {"@type": "GeoCoordinates", "latitude": "34.059713", "longitude": "-118.443659"}, "name": "Audrey at the Hammer", "description": "American, Bars & Nightlife, Happy Hour, French", "telephone": "310-443-7037", "url": "https://thewestwoodvillage.com/business-details/?ID=273", "type": "dining", "status": "accepting donations to help impacted staff", "open": false},
{"address": {"addressLocality": "Los Angeles", "addressRegion": "CA", "streetAddress": "935 Broxton Ave", "postalCode": " 90024"}, "geo": {"@type": "GeoCoordinates", "latitude": "34.062997", "longitude": "-118.447253"}, "name": "Baja California Tacos", "description": "Latin American, Vegetarian", "telephone": "310-824-8111", "url": "https://thewestwoodvillage.com/business-details/?ID=539", "type": "dining", "status": "", "open": true},
{"address": {"addressLocality": "Los Angeles", "addressRegion": "CA", "streetAddress": "1037 Broxton Ave.", "postalCode": "90024"}, "geo": {"@type": "GeoCoordinates", "latitude": "34.061638", "longitude": "-118.446763"}, "name": "Barney\u2019s Beanery", "description": "American, Bars & Nightlife", "telephone": "310-443-7777", "url": "https://thewestwoodvillage.com/business-details/?ID=278", "type": "dining", "status": "", "open": false},
{"address": {"addressLocality": "Los Angeles", "addressRegion": "CA", "streetAddress": "960 Gayley Ave.", "postalCode": "90024"}, "geo": {"@type": "GeoCoordinates", "latitude": "34.062348", "longitude": "-118.448035"}, "name": "Bella Pita ", "description": "Mediterranean", "telephone": "310-209-1050", "url": "https://thewestwoodvillage.com/business-details/?ID=282", "type": "dining", "status": "", "open": false},
{"address": {"addressLocality": "Los Angeles", "addressRegion": "CA", "streetAddress": "1059 Broxton Ave.", "postalCode": "90024"}, "geo": {"@type": "GeoCoordinates", "latitude": "34.0614", "longitude": "-118.446291"}, "name": "BIBIBOP Asian Grill", "description": "Asian", "telephone": "424-442-1171", "url": "https://thewestwoodvillage.com/business-details/?ID=283", "type": "dining", "status": "", "open": false},
{"address": {"addressLocality": "Los Angeles", "addressRegion": "CA", "streetAddress": "939 Broxton Ave.", "postalCode": "90024"}, "geo": {"@type": "GeoCoordinates", "latitude": "34.063213", "longitude": "-118.447132"}, "name": "BJ\u2019s Restaurant & Brewhouse", "description": "American", "telephone": "310-209-7475", "url": "https://thewestwoodvillage.com/business-details/?ID=284", "type": "dining", "status": "", "open": true},
{"address": {"addressLocality": "Los Angeles", "addressRegion": "CA", "streetAddress": "1051 Gayley Ave.", "postalCode": "90024"}, "geo": {"@type": "GeoCoordinates", "latitude": "34.061016", "longitude": "-118.447281"}, "name": "Bollywood Bites", "description": "Indian", "telephone": "310-403-1661", "url": "https://thewestwoodvillage.com/business-details/?ID=287", "type": "dining", "status": "", "open": true},
{"address": {"addressLocality": "Los Angeles", "addressRegion": "CA", "streetAddress": "1099 Westwood Blvd.", "postalCode": "90024"}, "geo": {"@type": "GeoCoordinates", "latitude": "34.061132", "longitude": "-118.445682"}, "name": "Broxton Brewery & Public House", "description": "Bars & Nightlife, American, Vegetarian", "telephone": "310-933-9949", "url": "https://thewestwoodvillage.com/business-details/?ID=289", "type": "dining", "status": "", "open": false},
{"address": {"addressLocality": "Los Angeles", "addressRegion": "CA", "streetAddress": "1001 Broxton Ave.", "postalCode": "90024"}, "geo": {"@type": "GeoCoordinates", "latitude": "34.062458", "longitude": "-118.4471"}, "name": "California Pizza Kitchen", "description": "Italian, American", "telephone": "310-209-9197", "url": "https://thewestwoodvillage.com/business-details/?ID=291", "type": "dining", "status": "", "open": true},
{"address": {"addressLocality": "Los Angeles", "addressRegion": "CA", "streetAddress": "1073 Broxton Ave.", "postalCode": "90024"}, "geo": {"@type": "GeoCoordinates", "latitude": "34.061068", "longitude": "-118.446272"}, "name": "CAVA", "description": "Mediterranean", "telephone": "310-860-6288", "url": "https://thewestwoodvillage.com/business-details/?ID=296", "type": "dining", "status": "", "open": true},
{"address": {"addressLocality": "Los Angeles", "addressRegion": "CA", "streetAddress": "900 Westwood Blvd.", "postalCode": "90024"}, "geo": {"@type": "GeoCoordinates", "latitude": "34.063124", "longitude": "-118.445287"}, "name": "Chick-fil-A", "description": "American", "telephone": "310-443-8900", "url": "https://thewestwoodvillage.com/business-details/?ID=300", "type": "dining", "status": "", "open": true},
{"address": {"addressLocality": "Los Angeles", "addressRegion": "CA", "streetAddress": "1077 Broxton Ave.", "postalCode": "90024"}, "geo": {"@type": "GeoCoordinates", "latitude": "34.061082", "longitude": "-118.446017"}, "name": "Chipotle", "description": "Latin American", "telephone": "310-824-4180", "url": "https://thewestwoodvillage.com/business-details/?ID=301", "type": "dining", "status": "", "open": true},
{"address": {"addressLocality": "Los Angeles", "addressRegion": "CA", "streetAddress": "950 Westwood Blvd.", "postalCode": "90024"}, "geo": {"@type": "GeoCoordinates", "latitude": "34.062843", "longitude": "-118.445292"}, "name": "Coffee Bean & Tea Leaf", "description": "Coffee & Juice", "telephone": "310-208-8018", "url": "https://thewestwoodvillage.com/business-details/?ID=310", "type": "dining", "status": "pick up and takeout only", "open": true},
*{"address": {"addressLocality": "Los Angeles", "addressRegion": "CA", "streetAddress": "10900 Wilshire Blvd. #170A", "postalCode": "90024"}, "geo": {"@type": "GeoCoordinates", "latitude": "34.058143", "longitude": "-118.443969"}, "name": "Comoncy", "description": "American, Coffee & Juice", "telephone": "310-888-3620", "url": "https://thewestwoodvillage.com/business-details/?ID=312", "type": "dining", "status": "", "open": true},
{"address": {"addressLocality": "Los Angeles", "addressRegion": "CA", "streetAddress": "1019 Westwood Blvd.", "postalCode": "90024"}, "geo": {"@type": "GeoCoordinates", "latitude": "34.062181", "longitude": "-118.445716"}, "name": "Corner Bakery Caf\u00e9", "description": "American", "telephone": "310-824-1314", "url": "https://thewestwoodvillage.com/business-details/?ID=315", "type": "dining", "status": "", "open": false},
{"address": {"addressLocality": "Los Angeles", "addressRegion": "CA", "streetAddress": "10917 Lindbrook Dr. ", "postalCode": "90024"}, "geo": {"@type": "GeoCoordinates", "latitude": "34.059702", "longitude": "-118.445199"}, "name": "Crazy Falafel", "description": "Mediterranean", "telephone": "310-208-5005", "url": "https://thewestwoodvillage.com/business-details/?ID=317", "type": "dining", "status": "", "open": true},
{"address": {"addressLocality": "Los Angeles", "addressRegion": "CA", "streetAddress": "1060 Tiverton Ave.", "postalCode": "90024"}, "geo": {"@type": "GeoCoordinates", "latitude": "34.060191", "longitude": "-118.443101"}, "name": "Denny\u2019s", "description": "American", "telephone": "310-443-7690", "url": "https://thewestwoodvillage.com/business-details/?ID=322", "type": "dining", "status": "", "open": true},
{"address": {"addressLocality": "Los Angeles", "addressRegion": "CA", "streetAddress": "926 Broxton Ave.", "postalCode": "90024"}, "geo": {"@type": "GeoCoordinates", "latitude": "34.063353", "longitude": "-118.446955"}, "name": "Diddy Riese Cookies", "description": "Treats", "telephone": "310-208-0448", "url": "https://thewestwoodvillage.com/business-details/?ID=323", "type": "dining", "status": "updated hours: Sunday-Thursday 12PM-11PM, Friday-Saturday 12PM-12PM", "open": true},
*{"address": {"addressLocality": "Los Angeles", "addressRegion": "CA", "streetAddress": "964 Gayley Ave.", "postalCode": "90024"}, "geo": {"@type": "GeoCoordinates", "latitude": "34.062725", "longitude": "-118.448049"}, "name": "Dip n Mix", "description": "Treats ", "telephone": "310-317-0888", "url": "https://thewestwoodvillage.com/business-details/?ID=327", "type": "dining", "status": "", "open": true},
{"address": {"addressLocality": "Los Angeles", "addressRegion": "CA", "streetAddress": "1099 Gayley Ave.", "postalCode": "90024"}, "geo": {"@type": "GeoCoordinates", "latitude": "34.060173", "longitude": "-118.446554"}, "name": "Elysee Bakery & Caf\u00e9", "description": "French, Treats", "telephone": "310-208-6505", "url": "https://thewestwoodvillage.com/business-details/?ID=329", "type": "dining", "status": "", "open": false},
{"address": {"addressLocality": "Los Angeles", "addressRegion": "CA", "streetAddress": "10940 Weyburn Ave.", "postalCode": "90024"}, "geo": {"@type": "GeoCoordinates", "latitude": "34.062343", "longitude": "-118.446648"}, "name": "Enzo\u2019s Pizzeria", "description": "Italian, American", "telephone": "310-208-3696", "url": "https://thewestwoodvillage.com/business-details/?ID=330", "type": "dining", "status": "", "open": true},
*{"address": {"addressLocality": "Los Angeles", "addressRegion": "CA", "streetAddress": "1129 Glendon Ave.", "postalCode": "90024"}, "geo": {"@type": "GeoCoordinates", "latitude": "34.060389", "longitude": "-118.444178"}, "name": "Espresso Profeta", "description": "Coffee & Juice", "telephone": "310-208-3375", "url": "https://thewestwoodvillage.com/business-details/?ID=332", "type": "dining", "status": "", "open": true},
{"address": {"addressLocality": "Los Angeles", "addressRegion": "CA", "streetAddress": "972 Gayley Ave.", "postalCode": "90024"}, "geo": {"@type": "GeoCoordinates", "latitude": "34.062238", "longitude": "-118.447991"}, "name": "Fat Sal\u2019s Deli", "description": "American", "telephone": "310-208-5070", "url": "https://thewestwoodvillage.com/business-details/?ID=337", "type": "dining", "status": "", "open": true},
{"address": {"addressLocality": "Los Angeles", "addressRegion": "CA", "streetAddress": "10955 Kinross Ave.", "postalCode": "90024"}, "geo": {"@type": "GeoCoordinates", "latitude": "34.060235", "longitude": "-118.446633"}, "name": "Fatburger", "description": "American", "telephone": "310-208-7365", "url": "https://thewestwoodvillage.com/business-details/?ID=338", "type": "dining", "status": "", "open": true},
{"address": {"addressLocality": "Los Angeles", "addressRegion": "CA", "streetAddress": "1071 Glendon Ave", "postalCode": "90024"}, "geo": {"@type": "GeoCoordinates", "latitude": "34.061166", "longitude": "-118.444553"}, "name": "Fellow Los Angeles", "description": "American, Bars & Nightlife", "telephone": "310-208-1071", "url": "https://thewestwoodvillage.com/business-details/?ID=340", "type": "dining", "status": "", "open": true},
*{"address": {"addressLocality": "Los Angeles", "addressRegion": "CA", "streetAddress": "10855 Lindbrook Dr.", "postalCode": "90024"}, "geo": {"@type": "GeoCoordinates", "latitude": "34.060167", "longitude": "-118.442935"}, "name": "First Szechuan Wok", "description": "Asian", "telephone": "310-208-7785", "url": "https://thewestwoodvillage.com/business-details/?ID=342", "type": "dining", "status": "", "open": true},
{"address": {"addressLocality": "Los Angeles", "addressRegion": "CA", "streetAddress": "10948 Weyburn Ave", "postalCode": "90024"}, "geo": {"@type": "GeoCoordinates", "latitude": "34.062478", "longitude": "-118.446858"}, "name": "Flame Broiler", "description": "Asian", "telephone": "310-208-0240", "url": "https://thewestwoodvillage.com/business-details/?ID=343", "type": "dining", "status": "", "open": true},
{"address": {"addressLocality": "Los Angeles", "addressRegion": "CA", "streetAddress": "10853 Lindbrook Dr.", "postalCode": "90024"}, "geo": {"@type": "GeoCoordinates", "latitude": "34.060183", "longitude": "-118.442875"}, "name": "Frida Mexican Cuisine", "description": "Latin American, Bars & Nightlife", "telephone": "310-209-0666", "url": "https://thewestwoodvillage.com/business-details/?ID=350", "type": "dining", "status": "", "open": true},
{"address": {"addressLocality": "Los Angeles", "addressRegion": "CA", "streetAddress": "978 Gayley Ave.", "postalCode": "90024"}, "geo": {"@type": "GeoCoordinates", "latitude": "34.062183", "longitude": "-118.447969"}, "name": "Gushi Korean BBQ & Teriyaki", "description": "Asian", "telephone": "310-208-4038", "url": "https://thewestwoodvillage.com/business-details/?ID=360", "type": "dining", "status": "", "open": true},
*{"address": {"addressLocality": "Los Angeles", "addressRegion": "CA", "streetAddress": "923 Broxton Ave.", "postalCode": "90024"}, "geo": {"@type": "GeoCoordinates", "latitude": "34.063395", "longitude": "-118.447136"}, "name": "Habibi Caf\u00e9", "description": "Mediterranean", "telephone": "310-824-2277", "url": "https://thewestwoodvillage.com/business-details/?ID=362", "type": "dining", "status": "", "open": true},
{"address": {"addressLocality": "Los Angeles", "addressRegion": "CA", "streetAddress": "10899 Wilshire Blvd.", "postalCode": "90024"}, "geo": {"@type": "GeoCoordinates", "latitude": "34.059082", "longitude": "-118.443825"}, "name": "Hammer Museum", "description": "Museums", "telephone": "310-443-7000", "url": "https://thewestwoodvillage.com/business-details/?ID=365", "type": "dining", "status": "", "open": false},
{"address": {"addressLocality": "Los Angeles", "addressRegion": "CA", "streetAddress": "970 Gayley Ave.", "postalCode": "90024"}, "geo": {"@type": "GeoCoordinates", "latitude": "34.062256", "longitude": "-118.447998"}, "name": "Hangry Moons", "description": "American", "telephone": "310-824-4114", "url": "https://thewestwoodvillage.com/business-details/?ID=366", "type": "dining", "status": "", "open": true},
{"address": {"addressLocality": "Los Angeles", "addressRegion": "CA", "streetAddress": "1131 Westwood Blvd", "postalCode": "90024"}, "geo": {"@type": "GeoCoordinates", "latitude": "34.060144", "longitude": "-118.445418"}, "name": "Headlines Diner", "description": "American", "telephone": "310-208-2424", "url": "https://thewestwoodvillage.com/business-details/?ID=367", "type": "dining", "status": "", "open": false},
{"address": {"addressLocality": "Los Angeles", "addressRegion": "CA", "streetAddress": "1076 Gayley Ave.", "postalCode": "90024"}, "geo": {"@type": "GeoCoordinates", "latitude": "34.060677", "longitude": "-118.44675"}, "name": "House of Meatballs", "description": "Italian", "telephone": "310-208-5117", "url": "https://thewestwoodvillage.com/business-details/?ID=371", "type": "dining", "status": "", "open": true},
{"address": {"addressLocality": "Los Angeles", "addressRegion": "CA", "streetAddress": "10912 Le Conte Ave.", "postalCode": "90024"}, "geo": {"@type": "GeoCoordinates", "latitude": "34.063559", "longitude": "-118.44573"}, "name": "Ichi Tea Sushi", "description": "Asian, Treats, Coffee & Juice", "telephone": "", "url": "https://thewestwoodvillage.com/business-details/?ID=532", "type": "dining", "status": "", "open": false},
{"address": {"addressLocality": "Los Angeles", "addressRegion": "CA", "streetAddress": "922 Gayley Ave.", "postalCode": "90024"}, "geo": {"@type": "GeoCoordinates", "latitude": "34.06309", "longitude": "-118.447996"}, "name": "In-N-Out", "description": "American", "telephone": "1-800-786-1000", "url": "https://thewestwoodvillage.com/business-details/?ID=374", "type": "dining", "status": "", "open": true},
{"address": {"addressLocality": "Los Angeles", "addressRegion": "CA", "streetAddress": "10946 Weyburn Ave.", "postalCode": "90024"}, "geo": {"@type": "GeoCoordinates", "latitude": "34.062473", "longitude": "-118.446766"}, "name": "It's Boba Time", "description": "Coffee, Tea, Juice & Treats", "telephone": "310-369-5227", "url": "https://thewestwoodvillage.com/business-details/?ID=379", "type": "dining", "status": "", "open": true},
{"address": {"addressLocality": "Los Angeles", "addressRegion": "CA", "streetAddress": "10845 Lindbrook Dr.", "postalCode": "90024"}, "geo": {"@type": "GeoCoordinates", "latitude": "34.060246", "longitude": "-118.442639"}, "name": "Italian Express", "description": "Italian", "telephone": "310-208-5572", "url": "https://thewestwoodvillage.com/business-details/?ID=378", "type": "dining", "status": "", "open": true},
{"address": {"addressLocality": "Los Angeles", "addressRegion": "CA", "streetAddress": "1020 Glendon Ave.", "postalCode": "90024"}, "geo": {"@type": "GeoCoordinates", "latitude": "34.061908", "longitude": "-118.444082"}, "name": "Jersey Mike\u2019s", "description": "American", "telephone": "310-208-3900", "url": "https://thewestwoodvillage.com/business-details/?ID=380", "type": "dining", "status": "", "open": true},
{"address": {"addressLocality": "Los Angeles", "addressRegion": "CA", "streetAddress": "10967 Weyburn Ave.", "postalCode": "90024"}, "geo": {"@type": "GeoCoordinates", "latitude": "34.06237", "longitude": "-118.447621"}, "name": "Junbi Matcha & Tea", "description": "Treats, Coffee, Tea & Juice", "telephone": "424-253-5850", "url": "https://thewestwoodvillage.com/business-details/?ID=451", "type": "dining", "status": "", "open": false},
*{"address": {"addressLocality": "Los Angeles", "addressRegion": "CA", "streetAddress": "1049 Gayley Ave.", "postalCode": "90024"}, "geo": {"@type": "GeoCoordinates", "latitude": "34.061039", "longitude": "-118.447411"}, "name": "Kaido Japanese Cuisine", "description": "Asian", "telephone": "424-293-2553", "url": "https://thewestwoodvillage.com/business-details/?ID=384", "type": "dining", "status": "", "open": true},
{"address": {"addressLocality": "Los Angeles", "addressRegion": "CA", "streetAddress": "1110 Gayley Ave.", "postalCode": "90024"}, "geo": {"@type": "GeoCoordinates", "latitude": "34.060188", "longitude": "-118.446329"}, "name": "KazuNori Sushi Westwood", "description": "Asian", "telephone": "310-935-3974", "url": "https://thewestwoodvillage.com/business-details/?ID=387", "type": "dining", "status": "", "open": true},
{"address": {"addressLocality": "Los Angeles", "addressRegion": "CA", "streetAddress": "1091 Broxton Ave.", "postalCode": "90024"}, "geo": {"@type": "GeoCoordinates", "latitude": "34.060851", "longitude": "-118.446076"}, "name": "Kopan Ramen", "description": "Asian", "telephone": "310-824-0011", "url": "https://thewestwoodvillage.com/business-details/?ID=389", "type": "dining", "status": "", "open": false},
{"address":{"addressLocality":"LosAngeles","addressRegion":"CA","streetAddress":"1066 Gayley Ave.","postalCode":"90024"},"geo":{"@type":"GeoCoordinates","latitude":"34.060852","longitude":"-118.446902"},"name":"Lamonica’s NY Pizza","description":"Italian, American","telephone":"310-208-8671","url":"https://thewestwoodvillage.com/business-details/?ID=394","type":"dining","status":"Only pickup and delivery","open":true},
{"address":{"addressLocality":"Los Angeles","addressRegion":"CA","streetAddress":"1122 Gayley Ave.","postalCode":"90024"},"geo":{"@type":"GeoCoordinates","latitude":"34.06008","longitude":"-118.446236"},"name":"Le Pain Quotidien","description":"French, Treats, Dessert, Coffee & Juice","telephone":"310-824-7900","url":"https://thewestwoodvillage.com/business-details/?ID=397","type":"dining","status":"Temporarily closed","open":false},
{"address":{"addressLocality":"Los Angeles","addressRegion":"CA","streetAddress":"930 Hilgard Ave.","postalCode":"90024"},"geo":{"@type":"GeoCoordinates","latitude":"34.063287","longitude":"-118.441237"},"name":"Living Room Bar","description":"American, Bars & Nightlife","telephone":"310-208-8765","url":"https://thewestwoodvillage.com/business-details/?ID=401","type":"dining","status":"*","open":true},
{"address":{"addressLocality":"Los Angeles","addressRegion":"CA","streetAddress":"1010 Glendon Ave.","postalCode":"90024"},"geo":{"@type":"GeoCoordinates","latitude":"34.061881","longitude":"-118.443997"},"name":"Ministry of Coffee Los Angeles","description":"Coffee & Juice","telephone":"424-256-2276","url":"https://thewestwoodvillage.com/business-details/?ID=409","type":"dining","status":"*","open":true},
{"address":{"addressLocality":"Los Angeles","addressRegion":"CA","streetAddress":"936 Broxton Ave.","postalCode":"90024"},"geo":{"@type":"GeoCoordinates","latitude":"34.063239","longitude":"-118.446952"},"name":"Mr. Noodle","description":"Asian","telephone":"310-208-1730","url":"https://thewestwoodvillage.com/business-details/?ID=412","type":"dining","status":"*","open":true},
{"address":{"addressLocality":"Los Angeles","addressRegion":"CA","streetAddress":"1010 Broxton Ave.","postalCode":"90024"},"geo":{"@type":"GeoCoordinates","latitude":"34.062223","longitude":"-118.44666"},"name":"Mr. Rice","description":"Asian","telephone":"424-317-0103","url":"https://thewestwoodvillage.com/business-details/?ID=530","type":"dining","status":"*","open":true},
{"address":{"addressLocality":"Los Angeles","addressRegion":"CA","streetAddress":"1100 Glendon Ave.","postalCode":"90024"},"geo":{"@type":"GeoCoordinates","latitude":"34.060723","longitude":"-118.444255"},"name":"Napa Valley Grille","description":"American, Bars & Nightlife","telephone":"310-824-3322","url":"https://thewestwoodvillage.com/business-details/?ID=415","type":"dining","status":"*","open":true},
{"address":{"addressLocality":"Los Angeles","addressRegion":"CA","streetAddress":"1114 Gayley Ave.","postalCode":"90024"},"geo":{"@type":"GeoCoordinates","latitude":"34.060152","longitude":"-118.446298"},"name":"Native Foods Café","description":"Vegetarian, American","telephone":"310-209-1055","url":"https://thewestwoodvillage.com/business-details/?ID=416","type":"dining","status":"Delivery and take-out only","open":true},
{"address":{"addressLocality":"Los Angeles","addressRegion":"CA","streetAddress":"10912 Lindbrook Dr","postalCode":"90024"},"geo":{"@type":"GeoCoordinates","latitude":"34.05949","longitude":"-118.444781"},"name":"Nekter Juice Bar","description":"Coffee & Juice","telephone":"424-365-9000","url":"https://thewestwoodvillage.com/business-details/?ID=417","type":"dining","status":"Temporarily closed ","open":false},
{"address":{"addressLocality":"Los Angeles","addressRegion":"CA","streetAddress":"10910 Lindbrook Dr.","postalCode":"90024"},"geo":{"@type":"GeoCoordinates","latitude":"34.059495","longitude":"-118.44476"},"name":"Noah’s Bagels","description":"American","telephone":"310-209- 8177","url":"https://thewestwoodvillage.com/business-details/?ID=418","type":"dining","status":"*","open":true},
{"address":{"addressLocality":"Los Angeles","addressRegion":"CA","streetAddress":"10965 Weyburn Ave","postalCode":"90024"},"geo":{"@type":"GeoCoordinates","latitude":"34.062492","longitude":"-118.447672"},"name":"Northern Cafe Chinese Noodles","description":"Asian","telephone":"310-208-8834","url":"https://thewestwoodvillage.com/business-details/?ID=536","type":"dining","status":"*","open":true},
{"address":{"addressLocality":"Los Angeles","addressRegion":"CA","streetAddress":"1064 Gayley Ave","postalCode":"90024"},"geo":{"@type":"GeoCoordinates","latitude":"34.060888","longitude":"-118.446932"},"name":"Northern Cafe Dumplings","description":"Asian","telephone":"310-208-8830","url":"https://thewestwoodvillage.com/business-details/?ID=419","type":"dining","status":"*","open":true},
{"address":{"addressLocality":"Los Angeles","addressRegion":"CA","streetAddress":"10942 Weyburn Ave.","postalCode":"90024"},"geo":{"@type":"GeoCoordinates","latitude":"34.06249","longitude":"-118.446574"},"name":"Onkei Ramen & Sushi","description":"Asian","telephone":"310-208-7280","url":"https://thewestwoodvillage.com/business-details/?ID=422","type":"dining","status":"*","open":true},
{"address":{"addressLocality":"Los Angeles","addressRegion":"CA","streetAddress":"1154 Westwood Blvd.","postalCode":"90024"},"geo":{"@type":"GeoCoordinates","latitude":"34.059758","longitude":"-118.444569"},"name":"Peet’s Coffee & Tea","description":"Coffee & Juice","telephone":"310-954-8191","url":"https://thewestwoodvillage.com/business-details/?ID=426","type":"dining","status":"Limited Access & Mobile Order Ahead Only, Open until 4pm","open":true},
{"address":{"addressLocality":"Los Angeles","addressRegion":"CA","streetAddress":"1030 Glendon Ave.","postalCode":"90024"},"geo":{"@type":"GeoCoordinates","latitude":"34.061609","longitude":"-118.444156"},"name":"Pinches Tacos Westwood","description":"Latin American","telephone":"310-361-8566","url":"https://thewestwoodvillage.com/business-details/?ID=428","type":"dining","status":"*","open":true},
{"address":{"addressLocality":"Los Angeles","addressRegion":"CA","streetAddress":"1135 Westwood Blvd.","postalCode":"90024"},"geo":{"@type":"GeoCoordinates","latitude":"34.059956","longitude":"-118.445216"},"name":"Poke Bar","description":"Asian","telephone":"310-208-7070","url":"https://thewestwoodvillage.com/business-details/?ID=433","type":"dining","status":"*","open":true},
{"address":{"addressLocality":"Los Angeles","addressRegion":"CA","streetAddress":"10878 Kinross Avenue","postalCode":"90024"},"geo":{"@type":"GeoCoordinates","latitude":"34.060697","longitude":"-118.445261"},"name":"Pressed Juicery","description":"Coffee & Juice","telephone":"310-443-1414","url":"https://thewestwoodvillage.com/business-details/?ID=434","type":"dining","status":"Mon-Sun 10am-6pm: Available for pickup and delivery (within an 8 mile radius from store opening to an hour before store closing","open":true},
{"address":{"addressLocality":"Los Angeles","addressRegion":"CA","streetAddress":"10861 Le Conte Ave.","postalCode":"90024"},"geo":{"@type":"GeoCoordinates","latitude":"34.063785","longitude":"-118.443722"},"name":"Ralphs Fresh Fare","description":"Grocery & Homegoods, Pharmacy & Drug","telephone":"310-824-5994","url":"https://thewestwoodvillage.com/business-details/?ID=437","type":"dining","status":"*","open":true},
{"address":{"addressLocality":"Los Angeles","addressRegion":"CA","streetAddress":"1000 Gayley Ave.","postalCode":"90024"},"geo":{"@type":"GeoCoordinates","latitude":"34.061979","longitude":"-118.447845"},"name":"Rocco’s Tavern","description":"American, Bars & Nightlife, Happy Hour, Italian","telephone":"424-248-3145","url":"https://thewestwoodvillage.com/business-details/?ID=440","type":"dining","status":"Only available for pickup and delivery on Doordash/Postmates/Uber Eats/Slice","open":true},
{"address":{"addressLocality":"Los Angeles","addressRegion":"CA","streetAddress":"10904 Lindbrook Dr.","postalCode":"90024"},"geo":{"@type":"GeoCoordinates","latitude":"34.059351","longitude":"-118.444915"},"name":"SanSai Fresh Japanese Grill","description":"Asian","telephone":"310-443-0610","url":"https://thewestwoodvillage.com/business-details/?ID=443","type":"dining","status":"Pickup and order delivery on Grubhub, UberEats, Doordash and Postmates","open":true},
{"address":{"addressLocality":"Los Angeles","addressRegion":"CA","streetAddress":"1000 Gayley Ave.","postalCode":"90024"},"geo":{"@type":"GeoCoordinates","latitude":"34.061912","longitude":"-118.447647"},"name":"Seventy7 West","description":"Happy Hour, Bars & Nightlife, American","telephone":"424-248-3145","url":"https://thewestwoodvillage.com/business-details/?ID=447","type":"dining","status":"*","open":true},
{"address":{"addressLocality":"Los Angeles","addressRegion":"CA","streetAddress":"940 Broxton Ave.","postalCode":"90024"},"geo":{"@type":"GeoCoordinates","latitude":"34.062767","longitude":"-118.446936"},"name":"Shahi Café","description":"Mediterranean","telephone":"310-824-2119","url":"https://thewestwoodvillage.com/business-details/?ID=361","type":"dining","status":"*","open":true},
{"address":{"addressLocality":"Los Angeles","addressRegion":"CA","streetAddress":"1055 Broxton Ave.","postalCode":"90024"},"geo":{"@type":"GeoCoordinates","latitude":"34.061385","longitude":"-118.446543"},"name":"Sharetea","description":"Coffee, Tea, Juice & Treats","telephone":"310-824-8168","url":"https://thewestwoodvillage.com/business-details/?ID=531","type":"dining","status":"*","open":true},
{"address":{"addressLocality":"Los Angeles","addressRegion":"CA","streetAddress":"1139 Glendon Ave.","postalCode":"90024"},"geo":{"@type":"GeoCoordinates","latitude":"34.059993","longitude":"-118.443639"},"name":"Skylight Gardens","description":"Italian, American, Bars & Nightlife","telephone":"310-824-1818","url":"https://thewestwoodvillage.com/business-details/?ID=452","type":"dining","status":"*","open":true},
{"address":{"addressLocality":"Los Angeles","addressRegion":"CA","streetAddress":"10948 Weyburn Ave.","postalCode":"90024"},"geo":{"@type":"GeoCoordinates","latitude":"34.062482","longitude":"-118.445419"},"name":"Stan’s Donuts","description":"Coffee, Juice & Treats","telephone":"310-208-8660","url":"https://thewestwoodvillage.com/business-details/?ID=458","type":"dining","status":"*","open":true},
{"address":{"addressLocality":"Los Angeles","addressRegion":"CA","streetAddress":"1161 Westwood Blvd.","postalCode":"90024"},"geo":{"@type":"GeoCoordinates","latitude":"34.059544","longitude":"-118.444733"},"name":"Starbucks Coffee Westwood Blvd","description":"Coffee & Juice","telephone":"310-208-5505","url":"https://thewestwoodvillage.com/business-details/?ID=460","type":"dining","status":"Temporarily closed","open":false},
{"address":{"addressLocality":"Los Angeles","addressRegion":"CA","streetAddress":"10955 Weyburn Ave","postalCode":"90024"},"geo":{"@type":"GeoCoordinates","latitude":"34.062552","longitude":"-118.447163"},"name":"Starbucks Coffee Weyburn Ave","description":"Coffee & Juice","telephone":"310-209-1626","url":"https://thewestwoodvillage.com/business-details/?ID=459","type":"dining","status":"Temporarily closed","open":false},
{"address":{"addressLocality":"Los Angeles","addressRegion":"CA","streetAddress":"930 Hilgard Ave.","postalCode":"90024"},"geo":{"@type":"GeoCoordinates","latitude":"34.063407","longitude":"-118.441017"},"name":"STK Los Angeles","description":"Bars & Nightlife","telephone":"310-208-8765","url":"https://thewestwoodvillage.com/business-details/?ID=461","type":"dining","status":"*","open":true},
{"address":{"addressLocality":"Los Angeles","addressRegion":"CA","streetAddress":"1165 Westwood Blvd.","postalCode":"90024"},"geo":{"@type":"GeoCoordinates","latitude":"34.059398","longitude":"-118.444703"},"name":"Subway","description":"American ","telephone":"310-208-7774","url":"https://thewestwoodvillage.com/business-details/?ID=463","type":"dining","status":"Open for takeout and delivery","open":true},
{"address":{"addressLocality":"Los Angeles","addressRegion":"CA","streetAddress":"1146 Westwood Blvd.","postalCode":"90024"},"geo":{"@type":"GeoCoordinates","latitude":"34.059919","longitude":"-118.444683"},"name":"Sweetfin Poke","description":"Asian","telephone":"310-231-0190","url":"https://thewestwoodvillage.com/business-details/?ID=466","type":"dining","status":"Raw fish, with or without marinade, and sauces and bases in bulk until 4pm for next day","open":true},
{"address":{"addressLocality":"Los Angeles","addressRegion":"CA","streetAddress":"10937 Weyburn Ave.","postalCode":"90024"},"geo":{"@type":"GeoCoordinates","latitude":"34.062644","longitude":"-118.446857"},"name":"Taco Bell","description":"Latin American","telephone":"310-208-4808","url":"https://thewestwoodvillage.com/business-details/?ID=468","type":"dining","status":"Open for pickup","open":true},
{"address":{"addressLocality":"Los Angeles","addressRegion":"CA","streetAddress":"1109 Glendon Ave.","postalCode":"90024"},"geo":{"@type":"GeoCoordinates","latitude":"34.060637","longitude":"-118.444431"},"name":"Tender Greens","description":"American","telephone":"213-335-5359","url":"https://thewestwoodvillage.com/business-details/?ID=471","type":"dining","status":"Open for pickup and delivery","open":true},
{"address":{"addressLocality":"Los Angeles","addressRegion":"CA","streetAddress":"10875 Kinross Ave.","postalCode":"90024"},"geo":{"@type":"GeoCoordinates","latitude":"34.060852","longitude":"-118.444577"},"name":"The Boiling Crab","description":"American","telephone":"310-208-4888","url":"https://thewestwoodvillage.com/business-details/?ID=475","type":"dining","status":"* Open for takeout","open":true},
{"address":{"addressLocality":"Los Angeles","addressRegion":"CA","streetAddress":"930 Hilgard Ave.","postalCode":"90024"},"geo":{"@type":"GeoCoordinates","latitude":"34.063313","longitude":"-118.440851"},"name":"The Hideout","description":"American, Bars & Nightlife","telephone":"310-208-8765","url":"https://thewestwoodvillage.com/business-details/?ID=478","type":"dining","status":"*","open":true},
{"address":{"addressLocality":"Los Angeles","addressRegion":"CA","streetAddress":"10840 Wilshire Blvd.","postalCode":"90024"},"geo":{"@type":"GeoCoordinates","latitude":"34.059216","longitude":"-118.441396"},"name":"The Tuck Room Tavern","description":"Bars & Nightlife","telephone":"310-307-7004","url":"https://thewestwoodvillage.com/business-details/?ID=484","type":"dining","status":"Temporarily closed","open":false},
{"address":{"addressLocality":"Los Angeles","addressRegion":"CA","streetAddress":"1116 Westwood Blvd.","postalCode":"90024"},"geo":{"@type":"GeoCoordinates","latitude":"34.060407","longitude":"-118.44489"},"name":"TLT Food","description":"Latin American","telephone":"310-443-4433","url":"https://thewestwoodvillage.com/business-details/?ID=488","type":"dining","status":"Temporarily closed","open":false},
{"address":{"addressLocality":"Los Angeles","addressRegion":"CA","streetAddress":"1122 Gayley Ave, Ste, 101B","postalCode":"90024"},"geo":{"@type":"GeoCoordinates","latitude":"34.059745","longitude":"-118.445623"},"name":"Tocaya Organica Westwood Village","description":"Latin American, Vegetarian","telephone":"424-244-3770","url":"https://thewestwoodvillage.com/business-details/?ID=489","type":"dining","status":"Available for pickup and delivery through postmates","open":true},
{"address":{"addressLocality":"Los Angeles","addressRegion":"CA","streetAddress":"10861 Lindbrook Drive","postalCode":"90024"},"geo":{"@type":"GeoCoordinates","latitude":"34.06025","longitude":"-118.442957"},"name":"Toranj","description":"Mediterranean","telephone":"310-824-8188","url":"https://thewestwoodvillage.com/business-details/?ID=528","type":"dining","status":"Takeout and Delivery","open":true},
{"address":{"addressLocality":"Los Angeles","addressRegion":"CA","streetAddress":"10962 Le Conte Avenue","postalCode":"90024"},"geo":{"@type":"GeoCoordinates","latitude":"34.063514","longitude":"-118.447506"},"name":"Upside Down","description":"Coffee, Tea, Juice & Treats","telephone":"310-341-0996","url":"https://thewestwoodvillage.com/business-details/?ID=527","type":"dining","status":"Temporarily Closed","open":false},
{"address":{"addressLocality":"Los Angeles","addressRegion":"CA","streetAddress":"10916 Lindbrook Dr.","postalCode":"90024"},"geo":{"@type":"GeoCoordinates","latitude":"34.059479","longitude":"-118.444823"},"name":"Veggie Grill","description":"Vegetarian","telephone":"310-209-6070","url":"https://thewestwoodvillage.com/business-details/?ID=505","type":"dining","status":"Temporarily Closed","open":false},
{"address":{"addressLocality":"Los Angeles","addressRegion":"CA","streetAddress":"1121 Glendon Ave. ","postalCode":"90024"},"geo":{"@type":"GeoCoordinates","latitude":"34.060483","longitude":"-118.444334"},"name":"Violet Bistro ","description":"American, Bars & Nightlife, Happy Hour, French","telephone":"310-208-1121","url":"https://thewestwoodvillage.com/business-details/?ID=509","type":"dining","status":"Curbside pickup and delivery now available. Order from 10am – 8pm.","open":true},
{"address":{"addressLocality":"Los Angeles","addressRegion":"CA","streetAddress":"1050 Gayley Ave.","postalCode":"90024"},"geo":{"@type":"GeoCoordinates","latitude":"34.061501","longitude":"-118.447164"},"name":"Whole Foods Market","description":"Grocery & Homegoods","telephone":"310-824-0858","url":"https://thewestwoodvillage.com/business-details/?ID=524","type":"dining","status":"Guests 60+ can start to shop at 7:00 am. Open: 8:00 am – 9:00 pm today","open":true}
]
