[
    {
        "address": {
          "addressLocality": "Los Angeles",
          "addressRegion": "CA",
          "streetAddress": "10921 Weyburn Ave.",
          "postalCode": "90024"
        },
        "geo": {
          "@type": "GeoCoordinates",
          "latitude": "34.062718",
          "longitude": "-118.446216"
        },
        "name": "Angeles Academy of Music",
        "description": "Educational, Other Services",
        "telephone": "310-907-7928",
        "url": "https://thewestwoodvillage.com/business-details/?ID=533",
        "type": "services",
        "status": "Lessons available online",
        "open": true
      },
      {
        "address": {
          "addressLocality": "Los Angeles",
          "addressRegion": "CA",
          "streetAddress": "937 Westwood Blvd",
          "postalCode": "90024"
        },
        "geo": {
          "@type": "GeoCoordinates",
          "latitude": "34.063277",
          "longitude": "-118.445284"
        },
        "name": "Blueprint LSAT Preparation",
        "description": "Educational",
        "telephone": "310-477-8383",
        "url": "https://thewestwoodvillage.com/business-details/?ID=286",
        "type": "services",
        "status": "Courses moved online",
        "open": true
      },
      {
        "address": {
          "addressLocality": "Los Angeles",
          "addressRegion": "CA",
          "streetAddress": "1100 Glendon Ave.",
          "postalCode": "90024"
        },
        "geo": {
          "@type": "GeoCoordinates",
          "latitude": "34.060723",
          "longitude": "-118.444255"
        },
        "name": "Kaplan Educational Center",
        "description": "Educational",
        "telephone": "213-514-8164",
        "url": "https://thewestwoodvillage.com/business-details/?ID=386",
        "type": "services",
        "status": "Classes moved online",
        "open": true
      },
      {
        "address": {
          "addressLocality": "Los Angeles",
          "addressRegion": "CA",
          "streetAddress": "10880 Wilshire Blvd, Suite 122",
          "postalCode": "90024"
        },
        "geo": {
          "@type": "GeoCoordinates",
          "latitude": "34.058467",
          "longitude": "-118.442909"
        },
        "name": "Mentor Language Institute",
        "description": "Educational",
        "telephone": "310-887-0777 ",
        "url": "https://thewestwoodvillage.com/business-details/?ID=407",
        "type": "services",
        "status": "Classes moved online",
        "open": true
      },
      {
        "address": {
          "addressLocality": "Los Angeles",
          "addressRegion": "CA",
          "streetAddress": "911 Westwood Blvd.",
          "postalCode": "90024"
        },
        "geo": {
          "@type": "GeoCoordinates",
          "latitude": "34.063332",
          "longitude": "-118.445528"
        },
        "name": "Swartwood Prep",
        "description": "Educational",
        "telephone": "310-999-1073",
        "url": "https://thewestwoodvillage.com/business-details/?ID=465",
        "type": "services",
        "status": "*",
        "open": true
      },
      {
        "address": {
          "addressLocality": "Los Angeles",
          "addressRegion": "CA",
          "streetAddress": "1074 Gayley Ave.",
          "postalCode": "90024"
        },
        "geo": {
          "@type": "GeoCoordinates",
          "latitude": "34.060712",
          "longitude": "-118.446781"
        },
        "name": "The Berkeley Review",
        "description": "Educational",
        "telephone": "1-800-622-8827",
        "url": "https://thewestwoodvillage.com/business-details/?ID=474",
        "type": "services",
        "status": "*",
        "open": true
      },
      {
        "address": {
          "addressLocality": "Los Angeles",
          "addressRegion": "CA",
          "streetAddress": "923 Westwood Blvd.",
          "postalCode": "90024"
        },
        "geo": {
          "@type": "GeoCoordinates",
          "latitude": "34.063435",
          "longitude": "-118.445281"
        },
        "name": "The Princeton Review",
        "description": "Educational",
        "telephone": "800-273-8439",
        "url": "https://thewestwoodvillage.com/business-details/?ID=481",
        "type": "services",
        "status": "Classes moved online",
        "open": true
      },
      {
        "address": {
          "addressLocality": "Los Angeles",
          "addressRegion": "CA",
          "streetAddress": "1093 Broxton Ave., #240",
          "postalCode": "90024"
        },
        "geo": {
          "@type": "GeoCoordinates",
          "latitude": "34.060799",
          "longitude": "-118.445773"
        },
        "name": "Tutor Me LA",
        "description": "Educational",
        "telephone": "310-896-8625",
        "url": "https://thewestwoodvillage.com/business-details/?ID=494",
        "type": "services",
        "status": "*",
        "open": true
      },
      {
        "address": {
          "addressLocality": "Los Angeles",
          "addressRegion": "CA",
          "streetAddress": "1018 Westwood Blvd",
          "postalCode": "90024"
        },
        "geo": {
          "@type": "GeoCoordinates",
          "latitude": "34.062058",
          "longitude": "-118.444968"
        },
        "name": "Terasaki Research Institute",
        "description": "Medical Services",
        "telephone": "310-479-6101",
        "url": "https://thewestwoodvillage.com/business-details/?ID=472",
        "type": "health_and_beauty",
        "status": "*",
        "open": true
      }
]