[
{"address": {"addressLocality": "Los Angeles", "addressRegion": "CA", "streetAddress": "10911 Kinross Ave.", "postalCode": "90024"}, "geo": {"@type": "GeoCoordinates", "latitude": "34.06056", "longitude": "-118.446042"}, "name": "Ali Hair Salon", "description": "Salon & Beauty", "telephone": "310-208-6300", "url": "https://thewestwoodvillage.com/business-details/?ID=442", "type": "health_and_beauty"},
{"address": {"addressLocality": "Los Angeles", "addressRegion": "CA", "streetAddress": "10921 Wilshire Blvd., Ste. 409", "postalCode": "90024"}, "geo": {"@type": "GeoCoordinates", "latitude": "34.058924", "longitude": "-118.444889"}, "name": "Angeleno Smile", "description": "Dental Offices", "telephone": "310-824-2624", "url": "https://thewestwoodvillage.com/business-details/?ID=269", "type": "health_and_beauty"},
{"address": {"addressLocality": "Los Angeles", "addressRegion": "CA", "streetAddress": "10921 Wilshire Blvd., Ste. 1008", "postalCode": "90024"}, "geo": {"@type": "GeoCoordinates", "latitude": "34.058924", "longitude": "-118.444889"}, "name": "ASK Dental Group", "description": "Dental Offices", "telephone": "310-443-4000", "url": "https://thewestwoodvillage.com/business-details/?ID=270", "type": "health_and_beauty"},
{"address": {"addressLocality": "Los Angeles", "addressRegion": "CA", "streetAddress": "10935 Weyburn Ave.", "postalCode": "90024"}, "geo": {"@type": "GeoCoordinates", "latitude": "34.062815", "longitude": "-118.446537"}, "name": "Aveda Institute", "description": "Educational", "telephone": "310-209-2000", "url": "https://thewestwoodvillage.com/business-details/?ID=274", "type": "health_and_beauty"},
{"address": {"addressLocality": "Los Angeles", "addressRegion": "CA", "streetAddress": "1051 Glendon Ave., # 124", "postalCode": "90024"}, "geo": {"@type": "GeoCoordinates", "latitude": "34.061664", "longitude": "-118.444328"}, "name": "Black Stag Barbershop", "description": "Salon & Beauty", "telephone": "323-708-2800", "url": "https://thewestwoodvillage.com/business-details/?ID=285", "type": "health_and_beauty"},
{"address": {"addressLocality": "Los Angeles", "addressRegion": "CA", "streetAddress": "1001 Gayley Ave.", "postalCode": "90024"}, "geo": {"@type": "GeoCoordinates", "latitude": "34.061611", "longitude": "-118.448082"}, "name": "Capelli Lounge", "description": "Salon & Beauty", "telephone": "310-824-2711", "url": "https://thewestwoodvillage.com/business-details/?ID=294", "type": "health_and_beauty"},
{"address": {"addressLocality": "Los Angeles", "addressRegion": "CA", "streetAddress": "10861 Weyburn Ave.", "postalCode": "90024"}, "geo": {"@type": "GeoCoordinates", "latitude": "34.063105", "longitude": "-118.443621"}, "name": "City Target Westwood", "description": "Clothing & Footwear, Grocery & Homegoods, Flowers & Gifts, Pharmacy & Drug", "telephone": "310-893-2360", "url": "https://thewestwoodvillage.com/business-details/?ID=308", "type": "health_and_beauty"},
{"address": {"addressLocality": "Los Angeles", "addressRegion": "CA", "streetAddress": "1031 Glendon Ave.", "postalCode": "90024"}, "geo": {"@type": "GeoCoordinates", "latitude": "34.062021", "longitude": "-118.44424"}, "name": "CorePower Yoga", "description": "Fitness", "telephone": "213-810-3153", "url": "https://thewestwoodvillage.com/business-details/?ID=314", "type": "health_and_beauty"},
{"address": {"addressLocality": "Los Angeles", "addressRegion": "CA", "streetAddress": "1001 Westwood Blvd.", "postalCode": "90024"}, "geo": {"@type": "GeoCoordinates", "latitude": "34.062563", "longitude": "-118.445387"}, "name": "CVS", "description": "Pharmacy & Drug, Other Services", "telephone": "310-209-9141", "url": "https://thewestwoodvillage.com/business-details/?ID=318", "type": "health_and_beauty"},
{"address": {"addressLocality": "Los Angeles", "addressRegion": "CA", "streetAddress": "918 Westwood Blvd.", "postalCode": "90024"}, "geo": {"@type": "GeoCoordinates", "latitude": "34.063023", "longitude": "-118.445289"}, "name": "Dr. Martin Hyman Optometrist", "description": "Optical & Eyewear", "telephone": "310-208-3913", "url": "https://thewestwoodvillage.com/business-details/?ID=518", "type": "health_and_beauty"},
{"address": {"addressLocality": "Los Angeles", "addressRegion": "CA", "streetAddress": "10960 Wilshire Blvd.", "postalCode": "90024"}, "geo": {"@type": "GeoCoordinates", "latitude": "34.058023", "longitude": "-118.445995"}, "name": "Equinox", "description": "Fitness", "telephone": "310-954-8950", "url": "https://thewestwoodvillage.com/business-details/?ID=331", "type": "health_and_beauty"},
{"address": {"addressLocality": "Los Angeles", "addressRegion": "CA", "streetAddress": "1126 Westwood Blvd.", "postalCode": "90024"}, "geo": {"@type": "GeoCoordinates", "latitude": "34.060486", "longitude": "-118.445181"}, "name": "European Wax Center", "description": "Salon & Beauty", "telephone": "310-473-6262", "url": "https://thewestwoodvillage.com/business-details/?ID=333", "type": "health_and_beauty"},
{"address": {"addressLocality": "Los Angeles", "addressRegion": "CA", "streetAddress": "10930 Weyburn Ave.", "postalCode": "90024"}, "geo": {"@type": "GeoCoordinates", "latitude": "34.062335", "longitude": "-118.446407"}, "name": "Eyes Of Westwood", "description": "Optical & Eyewear", "telephone": "310-208-1384", "url": "https://thewestwoodvillage.com/business-details/?ID=334", "type": "health_and_beauty"},
{"address": {"addressLocality": "Los Angeles", "addressRegion": "CA", "streetAddress": "956 Gayley Ave.", "postalCode": "90024"}, "geo": {"@type": "GeoCoordinates", "latitude": "34.062384", "longitude": "-118.44805"}, "name": "Fama Beauty Center", "description": "Salon & Beauty", "telephone": "310-824-7697", "url": "https://thewestwoodvillage.com/business-details/?ID=336", "type": "health_and_beauty"},
{"address": {"addressLocality": "Los Angeles", "addressRegion": "CA", "streetAddress": "10913 Weyburn Ave", "postalCode": "90024"}, "geo": {"@type": "GeoCoordinates", "latitude": "34.062825", "longitude": "-118.446069"}, "name": "Freddy & Liana\u2019s", "description": "Salon & Beauty", "telephone": "310-208-8049", "url": "https://thewestwoodvillage.com/business-details/?ID=349", "type": "health_and_beauty"},
{"address": {"addressLocality": "Los Angeles", "addressRegion": "CA", "streetAddress": "1051 Glendon Ave., Suite 105", "postalCode": "90024"}, "geo": {"@type": "GeoCoordinates", "latitude": "34.061664", "longitude": "-118.444328"}, "name": "Goddess Lynne BODY and SKIN", "description": "Salon & Beauty", "telephone": "310-487-3663", "url": "https://thewestwoodvillage.com/business-details/?ID=356", "type": "health_and_beauty"},
{"address": {"addressLocality": "Los Angeles", "addressRegion": "CA", "streetAddress": "1051 Glendon Ave #117", "postalCode": "90024"}, "geo": {"@type": "GeoCoordinates", "latitude": "34.061664", "longitude": "-118.444328"}, "name": "Hair By Annalisa", "description": "Salon & Beauty", "telephone": "310-433-5703", "url": "https://thewestwoodvillage.com/business-details/?ID=363", "type": "health_and_beauty"},
{"address": {"addressLocality": "Los Angeles", "addressRegion": "CA", "streetAddress": "1080 Glendon Ave.", "postalCode": "90024"}, "geo": {"@type": "GeoCoordinates", "latitude": "34.060967", "longitude": "-118.444314"}, "name": "Henri Salon & Spa De Beaute", "description": "Salon & Beauty", "telephone": "310-208-7531", "url": "https://thewestwoodvillage.com/business-details/?ID=368", "type": "health_and_beauty"},
{"address": {"addressLocality": "Los Angeles", "addressRegion": "CA", "streetAddress": "1045 Westwood Blvd.", "postalCode": "90024"}, "geo": {"@type": "GeoCoordinates", "latitude": "34.061851", "longitude": "-118.445599"}, "name": "InStyle Nails & Spa", "description": "Salon & Beauty", "telephone": "310-209-6288", "url": "https://thewestwoodvillage.com/business-details/?ID=375", "type": "health_and_beauty"},
{"address": {"addressLocality": "LosAngeles", "addressRegion": "CA", "streetAddress": "1051 Glendon Ave., Suite 114", "postalCode": "90024"}, "geo": {"@type": "GeoCoordinates", "latitude": "34.061664", "longitude": "-118.444328"}, "name": "Kut & Style by Mia", "description": "Salon & Beauty", "telephone": "310-980-4507", "url": "https://thewestwoodvillage.com/business-details/?ID=390", "type": "health_and_beauty"},
{"address": {"addressLocality": "LosAngeles", "addressRegion": "CA", "streetAddress": "10944 Weyburn Ave.", "postalCode": "90024"}, "geo": {"@type": "GeoCoordinates", "latitude": "34.062482", "longitude": "-118.445409"}, "name": "La Belle Hair & Skin", "description": "Salon & Beauty", "telephone": "310-208-0081", "url": "https://thewestwoodvillage.com/business-details/?ID=391", "type": "health_and_beauty"},
{"address": {"addressLocality": "Los Angeles", "addressRegion": "CA", "streetAddress": "10921 Wilshire Blvd.", "postalCode": "90024"}, "geo": {"@type": "GeoCoordinates", "latitude": "34.058924", "longitude": "-118.444889"}, "name": "LA Fitness", "description": "Fitness", "telephone": "310-209-5002", "url": "https://thewestwoodvillage.com/business-details/?ID=392", "type": "health_and_beauty"},
{"address": {"addressLocality": "Los Angeles", "addressRegion": "CA", "streetAddress": "1035 Westwood Blvd.", "postalCode": "90024"}, "geo": {"@type": "GeoCoordinates", "latitude": "34.061951", "longitude": "-118.445398"}, "name": "MAC Cosmetics", "description": "Health & Beauty", "telephone": "310-443-0003", "url": "https://thewestwoodvillage.com/business-details/?ID=403", "type": "health_and_beauty"},
{"address": {"addressLocality": "Los Angeles", "addressRegion": "CA", "streetAddress": "10889 Weyburn Ave.", "postalCode": "90024"}, "geo": {"@type": "GeoCoordinates", "latitude": "34.062654", "longitude": "-118.444833"}, "name": "Marina Salon", "description": "Salon & Beauty", "telephone": "310-989-9135", "url": "https://thewestwoodvillage.com/business-details/?ID=295", "type": "health_and_beauty"},
{"address": {"addressLocality": "Los Angeles", "addressRegion": "CA", "streetAddress": "933 Westwood Blvd.", "postalCode": "90024"}, "geo": {"@type": "GeoCoordinates", "latitude": "34.063313", "longitude": "-118.445551"}, "name": "Massage Envy", "description": "Salon & Beauty", "telephone": "323-505-9920", "url": "https://thewestwoodvillage.com/business-details/?ID=405", "type": "health_and_beauty"},
{"address": {"addressLocality": "Los Angeles", "addressRegion": "CA", "streetAddress": "1061 Gayley Ave.", "postalCode": "90024"}, "geo": {"@type": "GeoCoordinates", "latitude": "34.060872", "longitude": "-118.447222"}, "name": "Oakley\u2019s Barber Shop", "description": "Salon & Beauty", "telephone": "310-208-6559", "url": "https://thewestwoodvillage.com/business-details/?ID=421", "type": "health_and_beauty"},
{"address": {"addressLocality": "Los Angeles", "addressRegion": "CA", "streetAddress": "10911 Kinross Ave", "postalCode": "90024"}, "geo": {"@type": "GeoCoordinates", "latitude": "34.06068", "longitude": "-118.445887"}, "name": "Patio Nail Spa", "description": "Salon & Beauty", "telephone": "714-589-5340", "url": "https://thewestwoodvillage.com/business-details/?ID=425", "type": "health_and_beauty"},
{"address": {"addressLocality": "Los Angeles", "addressRegion": "CA", "streetAddress": "1051 Glendon Ave", "postalCode": "90024"}, "geo": {"@type": "GeoCoordinates", "latitude": "34.061664", "longitude": "-118.444328"}, "name": "Phenix Salon Suites", "description": "Salon & Beauty", "telephone": "310-998-7746", "url": "https://thewestwoodvillage.com/business-details/?ID=427", "type": "health_and_beauty"},
{"address": {"addressLocality": "Los Angeles", "addressRegion": "California", "streetAddress": "1065 Broxton Ave.", "postalCode": "90024"}, "geo": {"@type": "GeoCoordinates", "latitude": "34.061332", "longitude": "-118.446317"}, "name": "Platinum Black Salon", "description": "Salon & Beauty", "telephone": "310-476-4466", "url": "https://thewestwoodvillage.com/business-details/?ID=529", "type": "health_and_beauty"},
{"address": {"addressLocality": "Los Angeles", "addressRegion": "CA", "streetAddress": "10861 Le Conte Ave.", "postalCode": "90024"}, "geo": {"@type": "GeoCoordinates", "latitude": "34.063785", "longitude": "-118.443722"}, "name": "Ralphs Fresh Fare", "description": "Grocery & Homegoods, Pharmacy & Drug", "telephone": "310-824-5994", "url": "https://thewestwoodvillage.com/business-details/?ID=437", "type": "health_and_beauty"},
{"address": {"addressLocality": "Los Angeles", "addressRegion": "CA", "streetAddress": "1001 Glendon Ave.", "postalCode": "90024"}, "geo": {"@type": "GeoCoordinates", "latitude": "34.062498", "longitude": "-118.444162"}, "name": "Rite Aid", "description": "Other Services, Pharmacy & Drug", "telephone": "310-209-0708", "url": "https://thewestwoodvillage.com/business-details/?ID=439", "type": "health_and_beauty"},
{"address": {"addressLocality": "Los Angeles", "addressRegion": "CA", "streetAddress": "10930 Weyburn Ave.", "postalCode": "90024"}, "geo": {"@type": "GeoCoordinates", "latitude": "34.062335", "longitude": "-118.446407"}, "name": "Scrubs Unlimited", "description": "Clothing & Footwear", "telephone": "310-208-7669", "url": "https://thewestwoodvillage.com/business-details/?ID=445", "type": "health_and_beauty"},
{"address": {"addressLocality": "Los Angeles", "addressRegion": "CA", "streetAddress": "1051 Glendon Ave., Suite 109", "postalCode": "90024"}, "geo": {"@type": "GeoCoordinates", "latitude": "34.061664", "longitude": "-118.444328"}, "name": "Sheveux Salon", "description": "Salon & Beauty", "telephone": "562-472-5797", "url": "https://thewestwoodvillage.com/business-details/?ID=448", "type": "health_and_beauty"},
{"address": {"addressLocality": "Los Angeles", "addressRegion": "CA", "streetAddress": "1051 Westwood Blvd", "postalCode": "90024"}, "geo": {"@type": "GeoCoordinates", "latitude": "34.061619", "longitude": "-118.445579"}, "name": "Sigal Gevojanyan Salon", "description": "Salon & Beauty", "telephone": "310-208-0101", "url": "https://thewestwoodvillage.com/business-details/?ID=449", "type": "health_and_beauty"},
{"address": {"addressLocality": "Los Angeles", "addressRegion": "CA", "streetAddress": "943 Westwood Blvd.", "postalCode": "90024"}, "geo": {"@type": "GeoCoordinates", "latitude": "34.063218", "longitude": "-118.44558"}, "name": "Sontre Nail Spa Skin Care", "description": "Salon & Beauty", "telephone": "310-208-5000", "url": "https://thewestwoodvillage.com/business-details/?ID=455", "type": "health_and_beauty"},
{"address": {"addressLocality": "Los Angeles", "addressRegion": "CA", "streetAddress": "1051 Glendon Ave., Suite 111", "postalCode": "90024"}, "geo": {"@type": "GeoCoordinates", "latitude": "34.061664", "longitude": "-118.444328"}, "name": "Studio One Eleven", "description": "Salon & Beauty", "telephone": "310-251-6177", "url": "https://thewestwoodvillage.com/business-details/?ID=462", "type": "health_and_beauty"},
{"address": {"addressLocality": "Los Angeles", "addressRegion": "CA", "streetAddress": "1018 Westwood Blvd", "postalCode": "90024"}, "geo": {"@type": "GeoCoordinates", "latitude": "34.062058", "longitude": "-118.444968"}, "name": "Terasaki Research Institute", "description": "Medical Services", "telephone": "310-479-6101", "url": "https://thewestwoodvillage.com/business-details/?ID=472", "type": "health_and_beauty"},
{"address": {"addressLocality": "LosAngeles", "addressRegion": "CA", "streetAddress": "1051 Glendon Ave., Suite 122", "postalCode": "90024"}, "geo": {"@type": "GeoCoordinates", "latitude": "34.0616642", "longitude": "-118.4443279"}, "name": "The Bees Knees Studio", "description": "Salon & Beauty", "telephone": "510-432-1712", "url": "https://thewestwoodvillage.com/business-details/?ID=473", "type": "health_and_beauty"},
{"address": {"addressLocality": "Los Angeles", "addressRegion": "CA", "streetAddress": "1035 Gayley Ave.", "postalCode": "90024"}, "geo": {"@type": "GeoCoordinates", "latitude": "34.061296", "longitude": "-118.447523"}, "name": "The Farmacy", "description": "Holistic Medicine, Pharmacy & Drug", "telephone": "310-443-7722", "url": "https://thewestwoodvillage.com/business-details/?ID=476", "type": "health_and_beauty"},
{"address": {"addressLocality": "Los Angeles", "addressRegion": "CA", "streetAddress": "1051 Glendon Avenue, Suites 103 & 112", "postalCode": "90024"}, "geo": {"@type": "GeoCoordinates", "latitude": "34.061664", "longitude": "-118.444328"}, "name": "The Sweetest Lash", "description": "Salon & Beauty", "telephone": "424-209-2268", "url": "https://thewestwoodvillage.com/business-details/?ID=482", "type": "health_and_beauty"},
{"address": {"addressLocality": "Los Angeles", "addressRegion": "CA", "streetAddress": "1132 Westwood Blvd.", "postalCode": "90024"}, "geo": {"@type": "GeoCoordinates", "latitude": "34.06042", "longitude": "-118.445128"}, "name": "The Tanning Boutique", "description": "Salon & Beauty", "telephone": "310-208-6161", "url": "https://thewestwoodvillage.com/business-details/?ID=483", "type": "health_and_beauty"},
{"address": {"addressLocality": "Los Angeles", "addressRegion": "CA", "streetAddress": "10956 1/2 Weyburn Ave.", "postalCode": "90024"}, "geo": {"@type": "GeoCoordinates", "latitude": "34.062417", "longitude": "-118.447036"}, "name": "The Yoga Court", "description": "Fitness", "telephone": "310-824-3100", "url": "https://thewestwoodvillage.com/business-details/?ID=487", "type": "health_and_beauty"},
{"address": {"addressLocality": "Los Angeles", "addressRegion": "CA", "streetAddress": "1045 Gayley Avenue, 2nd Floor", "postalCode": "90024"}, "geo": {"@type": "GeoCoordinates", "latitude": "34.06102", "longitude": "-118.447571"}, "name": "UCLA Blood & Platelet Center", "description": "Medical Services", "telephone": "310-794-7197", "url": "https://thewestwoodvillage.com/business-details/?ID=495", "type": "health_and_beauty"},
{"address": {"addressLocality": "Los Angeles", "addressRegion": "CA", "streetAddress": "10925 Kinross Ave", "postalCode": "90024"}, "geo": {"@type": "GeoCoordinates", "latitude": "34.06056", "longitude": "-118.446416"}, "name": "ULTA Beauty", "description": "Salon & Beauty", "telephone": "310-443-0007", "url": "https://thewestwoodvillage.com/business-details/?ID=499", "type": "health_and_beauty"},
{"address": {"addressLocality": "Los Angeles", "addressRegion": "CA", "streetAddress": "1082 Glendon Avenue ", "postalCode": "90024"}, "geo": {"@type": "GeoCoordinates", "latitude": "34.060798", "longitude": "-118.444355"}, "name": "University Vascular Associates ", "description": "Medical Services", "telephone": "310-209-2011", "url": "https://thewestwoodvillage.com/business-details/?ID=501", "type": "health_and_beauty"},
{"address": {"addressLocality": "Los Angeles", "addressRegion": "CA", "streetAddress": "1059 Gayley Ave.", "postalCode": "90024"}, "geo": {"@type": "GeoCoordinates", "latitude": "34.060875", "longitude": "-118.447159"}, "name": "Village Eyes Optometry", "description": "Optical & Eyewear", "telephone": "310-208-3011", "url": "https://thewestwoodvillage.com/business-details/?ID=508", "type": "health_and_beauty"},
{"address": {"addressLocality": "Los Angeles", "addressRegion": "CA", "streetAddress": "1008 Broxton Ave", "postalCode": "90024"}, "geo": {"@type": "GeoCoordinates", "latitude": "34.062402", "longitude": "-118.446917"}, "name": "Westwood Acupuncture ", "description": "Holistic Medicine", "telephone": "424-248-3115", "url": "https://thewestwoodvillage.com/business-details/?ID=321", "type": "health_and_beauty"},
{"address": {"addressLocality": "Los Angeles", "addressRegion": "CA", "streetAddress": "10921 Wilshire Blvd.", "postalCode": "90024"}, "geo": {"@type": "GeoCoordinates", "latitude": "34.058924", "longitude": "-118.444889"}, "name": "Westwood Center Pharmacy", "description": "Pharmacy & Drug", "telephone": "310-208-6666", "url": "https://thewestwoodvillage.com/business-details/?ID=514", "type": "health_and_beauty"},
{"address": {"addressLocality": "Los Angeles", "addressRegion": "CA", "streetAddress": "1033 Gayley Ave Ste. 106", "postalCode": "90024"}, "geo": {"@type": "GeoCoordinates", "latitude": "34.061332", "longitude": "-118.447553"}, "name": "Westwood Orthodontics", "description": "Dental Offices", "telephone": "310-208-6333", "url": "https://thewestwoodvillage.com/business-details/?ID=519", "type": "health_and_beauty"},
{"address": {"addressLocality": "Los Angeles", "addressRegion": "CA", "streetAddress": "1033 Gayley Ave., Ste. 102", "postalCode": "90024"}, "geo": {"@type": "GeoCoordinates", "latitude": "34.061332", "longitude": "-118.447553"}, "name": "Westwood Village Smiles", "description": "Dental Offices", "telephone": "310-775-2265", "url": "https://thewestwoodvillage.com/business-details/?ID=354", "type": "health_and_beauty"},
{"address": {"addressLocality": "Los Angeles", "addressRegion": "CA", "streetAddress": "1050 Gayley Ave.", "postalCode": "90024"}, "geo": {"@type": "GeoCoordinates", "latitude": "34.061501", "longitude": "-118.447164"}, "name": "Whole Foods Market", "description": "Grocery & Homegoods", "telephone": "310-824-0858", "url": "https://thewestwoodvillage.com/business-details/?ID=524", "type": "health_and_beauty"},
{"address": {"addressLocality": "Los Angeles", "addressRegion": "CA", "streetAddress": "10921 Wilshire Blvd., Ste. 904", "postalCode": "90024"}, "geo": {"@type": "GeoCoordinates", "latitude": "34.058924", "longitude": "-118.444889"}, "name": "Zakhor Dental Group", "description": "Dental Offices", "telephone": "310-208-0811", "url": "https://thewestwoodvillage.com/business-details/?ID=526", "type": "health_and_beauty"}
]
