[
    {
      "address": {
        "addressLocality": "Los Angeles",
        "addressRegion": "CA",
        "streetAddress": "923 Westwood Blvd.",
        "postalCode": "90024"
      },
      "geo": {
        "@type": "GeoCoordinates",
        "latitude": "34.063435",
        "longitude": "-118.445281"
      },
      "name": "Amazon Hub Locker+ Westwood Village",
      "description": "Other Services",
      "telephone": "888-280-4331",
      "url": "https://thewestwoodvillage.com/business-details/?ID=266",
      "type": "services",
      "status": "",
      "open": true,
      "link": "Checked through personal account to see if they were delivering through the locker"
    },
    {
      "address": {
        "addressLocality": "Los Angeles",
        "addressRegion": "CA",
        "streetAddress": "10921 Weyburn Ave.",
        "postalCode": "90024"
      },
      "geo": {
        "@type": "GeoCoordinates",
        "latitude": "34.062718",
        "longitude": "-118.446216"
      },
      "name": "Angeles Academy of Music",
      "description": "Educational, Other Services",
      "telephone": "310-907-7928",
      "url": "https://thewestwoodvillage.com/business-details/?ID=533",
      "type": "services",
      "status": "Lessons available online",
      "open": true,
      "link": "https://angelesacademyofmusic.com/"
    },
    {
      "address": {
        "addressLocality": "Los Angeles",
        "addressRegion": "CA",
        "streetAddress": "1100 Westwood Blvd.",
        "postalCode": "90024"
      },
      "geo": {
        "@type": "GeoCoordinates",
        "latitude": "34.060825",
        "longitude": "-118.445248"
      },
      "name": "AT&T Wireless",
      "description": "Wireless Communications",
      "telephone": "310-208-0319",
      "url": "https://thewestwoodvillage.com/business-details/?ID=272",
      "type": "shopping",
      "status": "Temporarily closed",
      "open": false,
      "link": "https://www.att.com/stores/california/los-angeles/116576"
    },
    {
      "address": {
        "addressLocality": "Los Angeles",
        "addressRegion": "CA",
        "streetAddress": "930 Westwood Blvd.",
        "postalCode": "90024"
      },
      "geo": {
        "@type": "GeoCoordinates",
        "latitude": "34.062955",
        "longitude": "-118.445188"
      },
      "name": "Bank of America Westwood Blvd",
      "description": "Banks",
      "telephone": "800-622-8731",
      "url": "https://thewestwoodvillage.com/business-details/?ID=276",
      "type": "services",
      "status": "Temporarily closed (ATMs are still open)",
      "open": false,
      "link": "https://locators.bankofamerica.com/?lat=34.062336&lng=-118.4432128"
    },
    {
      "address": {
        "addressLocality": "Los Angeles",
        "addressRegion": "CA",
        "streetAddress": "10960 Wilshire Blvd.",
        "postalCode": "90024"
      },
      "geo": {
        "@type": "GeoCoordinates",
        "latitude": "34.057552",
        "longitude": "-118.446156"
      },
      "name": "Bank of America Wilshire Blvd",
      "description": "Banks",
      "telephone": "310-996-7867",
      "url": "https://thewestwoodvillage.com/business-details/?ID=277",
      "type": "services",
      "status": "Temporarily closed (ATMs are still open)",
      "open": false,
      "link": "https://locators.bankofamerica.com/?lat=34.062336&lng=-118.4432128"
    },
    {
      "address": {
        "addressLocality": "Los Angeles",
        "addressRegion": "CA",
        "streetAddress": "937 Westwood Blvd",
        "postalCode": "90024"
      },
      "geo": {
        "@type": "GeoCoordinates",
        "latitude": "34.063277",
        "longitude": "-118.445284"
      },
      "name": "Blueprint LSAT Preparation",
      "description": "Educational",
      "telephone": "310-477-8383",
      "url": "https://thewestwoodvillage.com/business-details/?ID=286",
      "type": "services",
      "status": "Courses moved online",
      "open": true,
      "link": "https://help.blueprintprep.com/en/articles/3783283-coronavirus-update?lead_srcid=4947 (Under  Are you continuing with “in-person” classes?)"
    },
    {
      "address": {
        "addressLocality": "Los Angeles",
        "addressRegion": "CA",
        "streetAddress": "10936 Weyburn Ave.",
        "postalCode": "90024"
      },
      "geo": {
        "@type": "GeoCoordinates",
        "latitude": "34.062481",
        "longitude": "-118.445389"
      },
      "name": "Campus Shoe Repair",
      "description": "Other Services",
      "telephone": "310-208-8749",
      "url": "https://thewestwoodvillage.com/business-details/?ID=293",
      "type": "services",
      "status": "Open M-F 11 AM - 3PM",
      "open": true,
      "link": "Called store"
    },
    {
      "address": {
        "addressLocality": "Los Angeles",
        "addressRegion": "CA",
        "streetAddress": "10901 Wilshire Blvd.",
        "postalCode": "90024"
      },
      "geo": {
        "@type": "GeoCoordinates",
        "latitude": "34.058663",
        "longitude": "-118.443956"
      },
      "name": "Chase Bank",
      "description": "Banks",
      "telephone": "310-208-0810",
      "url": "https://thewestwoodvillage.com/business-details/?ID=298",
      "type": "services",
      "status": "Open 9:30AM - 4PM M-F, 9:00AM - 4PM Sat, Closed on Sun",
      "open": true,
      "link": "https://locator.chase.com/search?qp=&q=34.062336%2C-118.4432128"
    },
    {
      "address": {
        "addressLocality": "Los Angeles",
        "addressRegion": "CA",
        "streetAddress": "10984 Le Conte Ave.",
        "postalCode": "90024"
      },
      "geo": {
        "@type": "GeoCoordinates",
        "latitude": "34.063392",
        "longitude": "-118.448572"
      },
      "name": "Chevron Gas",
      "description": "Other Services",
      "telephone": "310-208-8124",
      "url": "https://thewestwoodvillage.com/business-details/?ID=299",
      "type": "services",
      "status": "open",
      "open": true,
      "link": "https://www.chevron.com/stories/chevrons-response-to-covid-19-and-market-conditions?utm_source=twitter&utm_medium=social&utm_campaign=corporate"
    },
    {
      "address": {
        "addressLocality": "Los Angeles",
        "addressRegion": "CA",
        "streetAddress": "1125 Glendon Ave.",
        "postalCode": "90024"
      },
      "geo": {
        "@type": "GeoCoordinates",
        "latitude": "34.060306",
        "longitude": "-118.444323"
      },
      "name": "Christian Science Reading Room",
      "description": "Religious",
      "telephone": "310-208-3814",
      "url": "https://thewestwoodvillage.com/business-details/?ID=302",
      "type": "services",
      "status": "Temporarily closed",
      "open": false,
      "link": "https://www.facebook.com/ChristianScienceReadingRoomWestwood/posts/1402811849900227"
    },
    {
      "address": {
        "addressLocality": "Los Angeles",
        "addressRegion": "CA",
        "streetAddress": "1072 Westwood Blvd.",
        "postalCode": "90024"
      },
      "geo": {
        "@type": "GeoCoordinates",
        "latitude": "34.061188",
        "longitude": "-118.445038"
      },
      "name": "Citibank Westwood Blvd",
      "description": "Banks",
      "telephone": "310-208-5556",
      "url": "https://thewestwoodvillage.com/business-details/?ID=306",
      "type": "services",
      "status": "M-F 9AM - 4PM, closed on weekends",
      "open": true,
      "link": "https://online.citi.com/US/ag/citibank-location-finder"
    },
    {
      "address": {
        "addressLocality": "Los Angeles",
        "addressRegion": "CA",
        "streetAddress": "10900 Wilshire Blvd.",
        "postalCode": "90024"
      },
      "geo": {
        "@type": "GeoCoordinates",
        "latitude": "34.058143",
        "longitude": "-118.443969"
      },
      "name": "Citibank Wilshire Blvd",
      "description": "Banks",
      "telephone": "1-800-627-3999",
      "url": "https://thewestwoodvillage.com/business-details/?ID=305",
      "type": "services",
      "status": "Temporarily closed",
      "open": false,
      "link": "https://online.citi.com/US/ag/citibank-location-finder"
    },
    {
      "address": {
        "addressLocality": "LosAngeles",
        "addressRegion": "CA",
        "streetAddress": "10889 Wilshire Blvd.",
        "postalCode": "90024"
      },
      "geo": {
        "@type": "GeoCoordinates",
        "latitude": "34.05937592",
        "longitude": "-118.4436584"
      },
      "name": "City National Bank",
      "description": "Banks",
      "telephone": "310-888-6950",
      "url": "https://thewestwoodvillage.com/business-details/?ID=307",
      "type": "services",
      "status": "Lobby Hours Temporarily Changed, M-F 10AM - 3PM, closed on weekends ",
      "open": true,
      "link": "https://locations.cnb.com/?q=Los%20Angeles,%20CA%2090024,%20USA"
    },
    {
      "address": {
        "addressLocality": "Los Angeles",
        "addressRegion": "CA",
        "streetAddress": "1021 Glendon Ave.",
        "postalCode": "90024"
      },
      "geo": {
        "@type": "GeoCoordinates",
        "latitude": "34.062199",
        "longitude": "-118.444196"
      },
      "name": "Comerica Bank",
      "description": "Banks",
      "telephone": "310-208-3516",
      "url": "https://thewestwoodvillage.com/business-details/?ID=311",
      "type": "services",
      "status": "Monday â€“ Friday, 10:00 a.m. â€“ 4:00 p.m. PT, Saturday hours remain the same, lobby access limited to 3 customers at a time",
      "open": true,
      "link": "https://www.comerica.com/campaigns/covid-19.html?_ga=2.60304365.1128604564.1585728490-1302054465.1585728490#4"
    },
    {
      "address": {
        "addressLocality": "Los Angeles",
        "addressRegion": "CA",
        "streetAddress": "10919 Weyburn Ave.",
        "postalCode": "90024"
      },
      "geo": {
        "@type": "GeoCoordinates",
        "latitude": "34.062668",
        "longitude": "-118.445904"
      },
      "name": "Copymat",
      "description": "Copy & Printing",
      "telephone": "310-824-5276",
      "url": "https://thewestwoodvillage.com/business-details/?ID=313",
      "type": "services",
      "status": "Closed lobby, curbside pick-up only, delivery available for large orders",
      "open": true,
      "link": "Called store"
    },
    {
      "address": {
        "addressLocality": "Los Angeles",
        "addressRegion": "CA",
        "streetAddress": "1080 Broxton Ave.",
        "postalCode": "90024"
      },
      "geo": {
        "@type": "GeoCoordinates",
        "latitude": "34.061129",
        "longitude": "-118.44582"
      },
      "name": "Course Reader Material",
      "description": "Educational",
      "telephone": "310-443-3300",
      "url": "https://thewestwoodvillage.com/business-details/?ID=316",
      "type": "services",
      "status": "M - F 9AM - 4PM",
      "open": true,
      "link": "Called store"
    },
    {
      "address": {
        "addressLocality": "Los Angeles",
        "addressRegion": "CA",
        "streetAddress": "1001 Westwood Blvd.",
        "postalCode": "90024"
      },
      "geo": {
        "@type": "GeoCoordinates",
        "latitude": "34.062563",
        "longitude": "-118.445387"
      },
      "name": "CVS",
      "description": "Pharmacy & Drug, Other Services",
      "telephone": "310-209-9141",
      "url": "https://thewestwoodvillage.com/business-details/?ID=318",
      "type": "services",
      "status": "9AM - 9PM",
      "open": true,
      "link": "https://www.cvs.com/store-locator/details-directions/5828"
    },
    {
      "address": {
        "addressLocality": "Los Angeles",
        "addressRegion": "CA",
        "streetAddress": "10924 Weyburn Ave.",
        "postalCode": "90024"
      },
      "geo": {
        "@type": "GeoCoordinates",
        "latitude": "34.06243",
        "longitude": "-118.446267"
      },
      "name": "FedEx Office Print & Ship Center",
      "description": "Copy & Printing",
      "telephone": "310-443-5501",
      "url": "https://thewestwoodvillage.com/business-details/?ID=339",
      "type": "services",
      "status": "Limited services and adjusted hours: 9AM - 6PM M-F, 10AM- 6PM Sat, Closed Sun",
      "open": true,
      "link": "https://local.fedex.com/en-us/ca/los-angeles/office-5927/"
    },
    {
      "address": {
        "addressLocality": "Los Angeles",
        "addressRegion": "CA",
        "streetAddress": "10850 Wilshire Blvd #100",
        "postalCode": "90024"
      },
      "geo": {
        "@type": "GeoCoordinates",
        "latitude": "34.059228",
        "longitude": "-118.441603"
      },
      "name": "First Foundation Bank",
      "description": "Banks",
      "telephone": "310-943-8830",
      "url": "https://thewestwoodvillage.com/business-details/?ID=341",
      "type": "services",
      "status": "Open with normal hours",
      "open": true,
      "link": "Called store"
    },
    {
      "address": {
        "addressLocality": "Los Angeles",
        "addressRegion": "CA",
        "streetAddress": "1025 Westwood Blvd., Suite B ",
        "postalCode": "90024"
      },
      "geo": {
        "@type": "GeoCoordinates",
        "latitude": "34.062069",
        "longitude": "-118.445706"
      },
      "name": "Float Lab",
      "description": "Other Services",
      "telephone": "310-396-3336",
      "url": "https://thewestwoodvillage.com/business-details/?ID=345",
      "type": "services",
      "status": "",
      "open": false,
      "link": "Called store"
    },
    {
      "address": {
        "addressLocality": "Los Angeles",
        "addressRegion": "CA",
        "streetAddress": "1076 Glendon Ave.",
        "postalCode": "90024"
      },
      "geo": {
        "@type": "GeoCoordinates",
        "latitude": "34.061303",
        "longitude": "-118.444231"
      },
      "name": "Gary's Custom Tailoring",
      "description": "Other Services, Tailoring, Alterations ",
      "telephone": "310-208-4068",
      "url": "https://thewestwoodvillage.com/business-details/?ID=351",
      "type": "services",
      "status": "Limited store hours",
      "open": true,
      "link": ""
    },
    {
      "address": {
        "addressLocality": "Los Angeles",
        "addressRegion": "CA",
        "streetAddress": "1006 Broxton Ave.",
        "postalCode": "90024"
      },
      "geo": {
        "@type": "GeoCoordinates",
        "latitude": "34.062437",
        "longitude": "-118.446947"
      },
      "name": "Image Wireless",
      "description": "Wireless Communications",
      "telephone": "310-657-2337",
      "url": "https://thewestwoodvillage.com/business-details/?ID=373",
      "type": "services",
      "status": "",
      "open": true,
      "link": "https://www.instagram.com/p/B95jpQvDWdW/"
    },
    {
      "address": {
        "addressLocality": "Los Angeles",
        "addressRegion": "CA",
        "streetAddress": "1100 Glendon Ave.",
        "postalCode": "90024"
      },
      "geo": {
        "@type": "GeoCoordinates",
        "latitude": "34.060723",
        "longitude": "-118.444255"
      },
      "name": "Kaplan Educational Center",
      "description": "Educational",
      "telephone": "213-514-8164",
      "url": "https://thewestwoodvillage.com/business-details/?ID=386",
      "type": "services",
      "status": "Classes moved online",
      "open": true,
      "link": "https://www.kaptest.com/virus-awareness"
    },
    {
      "address": {
        "addressLocality": "LosAngeles",
        "addressRegion": "CA",
        "streetAddress": "1036 Broxton Ave.",
        "postalCode": "90024"
      },
      "geo": {
        "@type": "GeoCoordinates",
        "latitude": "34.06187827",
        "longitude": "-118.4461847"
      },
      "name": "LA Imprints ",
      "description": "Copy & Printing",
      "telephone": "310-208-7771",
      "url": "https://thewestwoodvillage.com/business-details/?ID=393",
      "type": "services",
      "status": "Restricted",
      "open": false,
      "link": "Called store"
    },
    {
      "address": {
        "addressLocality": "Los Angeles",
        "addressRegion": "CA",
        "streetAddress": "10880 Wilshire Blvd, Suite 122",
        "postalCode": "90024"
      },
      "geo": {
        "@type": "GeoCoordinates",
        "latitude": "34.058467",
        "longitude": "-118.442909"
      },
      "name": "Mentor Language Institute",
      "description": "Educational",
      "telephone": "310-887-0777 ",
      "url": "https://thewestwoodvillage.com/business-details/?ID=407",
      "type": "services",
      "status": "Classes moved online",
      "open": true,
      "link": "https://mliesl.edu/"
    },
    {
      "address": {
        "addressLocality": "Los Angeles",
        "addressRegion": "CA",
        "streetAddress": "1044 Tiverton Ave.",
        "postalCode": "90024"
      },
      "geo": {
        "@type": "GeoCoordinates",
        "latitude": "34.060818",
        "longitude": "-118.442756"
      },
      "name": "Palihotel Westwood Village",
      "description": "Lodging",
      "telephone": "310-340-1234",
      "url": "https://thewestwoodvillage.com/business-details/?ID=537",
      "type": "services",
      "status": "",
      "open": true,
      "link": "https://www.instagram.com/p/B-KS4u9AW85/"
    },
    {
      "address": {
        "addressLocality": "Los Angeles",
        "addressRegion": "CA",
        "streetAddress": "10850 Lindbrook Dr",
        "postalCode": "90024"
      },
      "geo": {
        "@type": "GeoCoordinates",
        "latitude": "34.060048",
        "longitude": "-118.442461"
      },
      "name": "Plaza la Reina Hotel & Residence",
      "description": "Lodging",
      "telephone": "310-986-6888",
      "url": "https://thewestwoodvillage.com/business-details/?ID=430",
      "type": "services",
      "status": "open",
      "open": true,
      "link": "https://www.plazalareina.com/covid-19-update.htm"
    },
    {
      "address": {
        "addressLocality": "Los Angeles",
        "addressRegion": "CA",
        "streetAddress": "923 Westwood Blvd.",
        "postalCode": "90024"
      },
      "geo": {
        "@type": "GeoCoordinates",
        "latitude": "34.063435",
        "longitude": "-118.445281"
      },
      "name": "The Princeton Review",
      "description": "Educational",
      "telephone": "800-273-8439",
      "url": "https://thewestwoodvillage.com/business-details/?ID=481",
      "type": "services",
      "status": "Classes moved online",
      "open": true,
      "link": "https://www.princetonreview.com/virus-awareness?ceid=hp-banner"
    },
    {
      "address": {
        "addressLocality": "Los Angeles",
        "addressRegion": "CA",
        "streetAddress": "907 Westwood Blvd.",
        "postalCode": "90024"
      },
      "geo": {
        "@type": "GeoCoordinates",
        "latitude": "34.063576",
        "longitude": "-118.445584"
      },
      "name": "The UPS Store",
      "description": "Copy & Printing",
      "telephone": "310-208-0828",
      "url": "https://thewestwoodvillage.com/business-details/?ID=485",
      "type": "services",
      "status": "open",
      "open": true,
      "link": "https://www.theupsstore.com/important-update"
    },
    {
      "address": {
        "addressLocality": "Los Angeles",
        "addressRegion": "CA",
        "streetAddress": "10880 Wilshire Blvd., # 2210",
        "postalCode": "90024"
      },
      "geo": {
        "@type": "GeoCoordinates",
        "latitude": "34.058467",
        "longitude": "-118.442909"
      },
      "name": "Tower Cleaners",
      "description": "Dry Cleaning, Other Services",
      "telephone": "310-475-2777",
      "url": "https://thewestwoodvillage.com/business-details/?ID=491",
      "type": "services",
      "status": "*",
      "open": true,
      "link": "8:30 1:30 2:30 - 5:00 normal hours, no one picked up"
    },
    {
      "address": {
        "addressLocality": "Los Angeles",
        "addressRegion": "CA",
        "streetAddress": "425 Westwood Plaza",
        "postalCode": "90095"
      },
      "geo": {
        "@type": "GeoCoordinates",
        "latitude": "34.069191",
        "longitude": "-118.445714"
      },
      "name": "UCLA Meyer & Renee Luskin Conference Center",
      "description": "Lodging",
      "telephone": "310-206-8585",
      "url": "https://thewestwoodvillage.com/business-details/?ID=497",
      "type": "services",
      "status": "Open and accepting reservations",
      "open": true,
      "link": "https://luskinconferencecenter.ucla.edu/coronavirus/"
    },
    {
      "address": {
        "addressLocality": "Los Angeles",
        "addressRegion": "CA",
        "streetAddress": "900 Tiverton Ave.",
        "postalCode": "90095"
      },
      "geo": {
        "@type": "GeoCoordinates",
        "latitude": "34.066988",
        "longitude": "-118.441404"
      },
      "name": "UCLA Tiverton House",
      "description": "Lodging",
      "telephone": "310-794-0151",
      "url": "https://thewestwoodvillage.com/business-details/?ID=498",
      "type": "services",
      "status": "New visitor restrictions in place",
      "open": true,
      "link": "https://www.uclahealth.org/tiverton/"
    },
    {
      "address": {
        "addressLocality": "Los Angeles",
        "addressRegion": "CA",
        "streetAddress": "10900 Wilshire Blvd.",
        "postalCode": "90024"
      },
      "geo": {
        "@type": "GeoCoordinates",
        "latitude": "34.058143",
        "longitude": "-118.443969"
      },
      "name": "Union Bank",
      "description": "Banks",
      "telephone": "310-475-7200",
      "url": "https://thewestwoodvillage.com/business-details/?ID=500",
      "type": "services",
      "status": "M-Fri 10:00AM - 04:00PM",
      "open": true,
      "link": "https://www.unionbank.com/locations"
    },
    {
      "address": {
        "addressLocality": "Los Angeles",
        "addressRegion": "CA",
        "streetAddress": "10866 Wilshire Blvd.",
        "postalCode": "90024"
      },
      "geo": {
        "@type": "GeoCoordinates",
        "latitude": "34.058569",
        "longitude": "-118.441981"
      },
      "name": "US Bank",
      "description": "Banks",
      "telephone": "310-470-8372",
      "url": "https://thewestwoodvillage.com/business-details/?ID=503",
      "type": "services",
      "status": "Lobby 9:30 a.m. to 4 p.m. M-F, closed on weekends",
      "open": true,
      "link": "https://locations.usbank.com/search.html"
    },
    {
      "address": {
        "addressLocality": "Los Angeles",
        "addressRegion": "CA",
        "streetAddress": "1001 Gayley Ave., #105",
        "postalCode": "90024"
      },
      "geo": {
        "@type": "GeoCoordinates",
        "latitude": "34.061611",
        "longitude": "-118.448082"
      },
      "name": "US Post Office Village Station",
      "description": "Copy & Printing",
      "telephone": "310-824-0020",
      "url": "https://thewestwoodvillage.com/business-details/?ID=504",
      "type": "services",
      "status": "Open",
      "open": true,
      "link": "https://tools.usps.com/find-location.htm?locationType=all&address=07088&searchRadius=20&fdbid=1385988&latitude=40.72886414911714&longitude=-74.00533734163093&"
    },
    {
      "address": {
        "addressLocality": "Los Angeles",
        "addressRegion": "CA",
        "streetAddress": "1095 Broxton Ave, Ste 228",
        "postalCode": "90024"
      },
      "geo": {
        "@type": "GeoCoordinates",
        "latitude": "34.060764",
        "longitude": "-118.445743"
      },
      "name": "Verizon",
      "description": "Wireless Communications",
      "telephone": "310-209-4980",
      "url": "https://thewestwoodvillage.com/business-details/?ID=506",
      "type": "services",
      "status": "Store temporarily closed, online shopping available",
      "open": true,
      "link": "https://www.verizonwireless.com/stores/california/los-angeles/westwood-331637/#/storeDetails"
    },
    {
      "address": {
        "addressLocality": "Los Angeles",
        "addressRegion": "CA",
        "streetAddress": "930 Hilgard Ave.",
        "postalCode": "90024"
      },
      "geo": {
        "@type": "GeoCoordinates",
        "latitude": "34.063287",
        "longitude": "-118.441237"
      },
      "name": "W Hotel Los Angeles - West Beverly Hills",
      "description": "Lodging",
      "telephone": "310-208-8765",
      "url": "https://thewestwoodvillage.com/business-details/?ID=510",
      "type": "services",
      "status": "*",
      "open": true,
      "link": "https://marriott-re-2019ncovc.com/"
    },
    {
      "address": {
        "addressLocality": "Los Angeles",
        "addressRegion": "CA",
        "streetAddress": "10906 Le Conte Ave.",
        "postalCode": "90024"
      },
      "geo": {
        "@type": "GeoCoordinates",
        "latitude": "34.063582",
        "longitude": "-118.445568"
      },
      "name": "Wells Fargo Le Conte",
      "description": "Banks",
      "telephone": "424-325-7000",
      "url": "https://thewestwoodvillage.com/business-details/?ID=512",
      "type": "services",
      "status": "Temporarily closed",
      "open": false,
      "link": "https://www.wellsfargo.com/locator/search/?searchTxt=90024&mlflg=N&sgindex=3&bo=1&_bo=on&_wl=on&_os=on&_bdu=on&_adu=on&_ah=on&_sdb=on&_aa=on&_nt=on&_fe=on"
    },
    {
      "address": {
        "addressLocality": "Los Angeles",
        "addressRegion": "CA",
        "streetAddress": "10920 Wilshire Blvd.",
        "postalCode": "90024"
      },
      "geo": {
        "@type": "GeoCoordinates",
        "latitude": "34.058464",
        "longitude": "-118.444826"
      },
      "name": "Wells Fargo Wilshire Blvd.",
      "description": "Banks",
      "telephone": "310-470-8372",
      "url": "https://thewestwoodvillage.com/business-details/?ID=511",
      "type": "services",
      "status": "Teller line open; Banker By Appt",
      "open": true,
      "link": "https://www.wellsfargo.com/locator/search/?searchTxt=90024&mlflg=N&sgindex=3&bo=1&_bo=on&_wl=on&_os=on&_bdu=on&_adu=on&_ah=on&_sdb=on&_aa=on&_nt=on&_fe=on"
    },
    {
      "address": {
        "addressLocality": "Los Angeles",
        "addressRegion": "CA",
        "streetAddress": "1246 Glendon Ave.",
        "postalCode": "90024"
      },
      "geo": {
        "@type": "GeoCoordinates",
        "latitude": "34.059009",
        "longitude": "-118.442369"
      },
      "name": "Westwood Branch Library",
      "description": "Educational",
      "telephone": "310-474-1739",
      "url": "https://thewestwoodvillage.com/business-details/?ID=513",
      "type": "services",
      "status": "Temporarily closed",
      "open": false,
      "link": "https://www.lapl.org/coronavirus"
    },
    {
      "address": {
        "addressLocality": "Los Angeles",
        "addressRegion": "CA",
        "streetAddress": "10808 Le Conte Ave. ",
        "postalCode": "90024"
      },
      "geo": {
        "@type": "GeoCoordinates",
        "latitude": "34.063603",
        "longitude": "-118.441699"
      },
      "name": "Westwood Hills Christian Church",
      "description": "Religious",
      "telephone": "310-208-8576",
      "url": "https://thewestwoodvillage.com/business-details/?ID=304",
      "type": "services",
      "status": "",
      "open": false,
      "link": "https://www.instagram.com/p/B-C3JpegyB1/"
    },
    {
      "address": {
        "addressLocality": "Los Angeles",
        "addressRegion": "CA",
        "streetAddress": "1148 Westwood Blvd.",
        "postalCode": "90024"
      },
      "geo": {
        "@type": "GeoCoordinates",
        "latitude": "34.060243",
        "longitude": "-118.444987"
      },
      "name": "Westwood Village Synagogue",
      "description": "Religious",
      "telephone": "310-824-9987",
      "url": "https://thewestwoodvillage.com/business-details/?ID=522",
      "type": "services",
      "status": "Temporarily closed",
      "open": false,
      "link": "http://westwoodvillagesynagogue.org/"
    },
    {
      "address": {
        "addressLocality": "Los Angeles",
        "addressRegion": "CA",
        "streetAddress": "10907 Weyburn Ave.",
        "postalCode": "90024"
      },
      "geo": {
        "@type": "GeoCoordinates",
        "latitude": "34.062662",
        "longitude": "-118.445451"
      },
      "name": "Westwood Wireless",
      "description": "Wireless Communications",
      "telephone": "310-208-2082",
      "url": "https://thewestwoodvillage.com/business-details/?ID=523",
      "type": "services",
      "status": "Open till 4:30PM",
      "open": true,
      "link": "Called store"
    }
  ]